{
  "data": [
	{
	  "title": "All Saints Catholic Church",
	  "street": "300 Ptolemy Street",
	  "startTime": "11a.m.",
	  "endTime": null,
	  "everyFriday": false,
	  "dates": [
		"2/28",
		"3/6",
		"3/13",
		"3/20",
		"3/27",
		"4/3"
	  ],
	  "telephone": null,
	  "email": null,
	  "food": [
		"Fried Fish",
		"Eggplant Casserole",
		"Stuffed Crab",
		"Macaroni",
		"French Fries",
		"Potato Salad",
		"Bread",
		"vegetable",
		"cake"
	  ],
	  "geo": [
		{
		  "formattedAddress": "300 Ptolemy St, New Orleans, LA 70114, USA",
		  "latitude": 29.9401119,
		  "longitude": -90.0530483,
		  "extra": {
			"googlePlaceId": "EiozMDAgUHRvbGVteSBTdCwgTmV3IE9ybGVhbnMsIExBIDcwMTE0LCBVU0EiGxIZChQKEgnzJO5HQ6YghhEdAXU3rGzBYRCsAg",
			"confidence": 0.9,
			"premise": null,
			"subpremise": null,
			"neighborhood": "Algiers",
			"establishment": null
		  },
		  "administrativeLevels": {
			"level2long": "Orleans Parish",
			"level2short": "Orleans Parish",
			"level1long": "Louisiana",
			"level1short": "LA"
		  },
		  "streetNumber": "300",
		  "streetName": "Ptolemy Street",
		  "city": "New Orleans",
		  "country": "United States",
		  "countryCode": "US",
		  "zipcode": "70114",
		  "provider": "google"
		}
	  ]
	},
	{
	  "title": "St. Bonaventure Catholic Church",
	  "street": "329 South Jamie",
	  "startTime": "4:00pm",
	  "endTime": "7:30pm",
	  "everyFriday": true,
	  "dates": [
		"2/28",
		"3/6",
		"3/13",
		"3/20",
		"3/27",
		"4/3"
	  ],
	  "telephone": null,
	  "email": null,
	  "food": [
		"Gumbo",
		"potato salad",
		"Oysters and Shrimp Dinners",
		"cold slaw",
		"Sweets"
	  ],
	  "geo": [
		{
		  "formattedAddress": "329 S Jamie Blvd, Avondale, LA 70094, USA",
		  "latitude": 29.9052471,
		  "longitude": -90.204667,
		  "extra": {
			"googlePlaceId": "ChIJw95_6L-7IIYReiWvUBdVrJk",
			"confidence": 1,
			"premise": null,
			"subpremise": null,
			"neighborhood": "Avondale",
			"establishment": null
		  },
		  "administrativeLevels": {
			"level3long": "Parish Governing Authority District 2",
			"level3short": "Parish Governing Authority District 2",
			"level2long": "Jefferson Parish",
			"level2short": "Jefferson Parish",
			"level1long": "Louisiana",
			"level1short": "LA"
		  },
		  "streetNumber": "329",
		  "streetName": "South Jamie Boulevard",
		  "city": "Avondale",
		  "country": "United States",
		  "countryCode": "US",
		  "zipcode": "70094",
		  "provider": "google"
		}
	  ]
	},
	{
	  "title": "St. Hubert Church",
	  "street": "176 Anthony Monica",
	  "startTime": "4:00pm",
	  "endTime": "7:30pm",
	  "everyFriday": true,
	  "dates": [
		"2/28",
		"3/6",
		"3/13",
		"3/20",
		"3/27",
		"4/3"
	  ],
	  "telephone": null,
	  "email": null,
	  "food": [
		"Fried fish",
		"Mac & Cheese",
		"vegetable",
		"bread",
		"cake"
	  ],
	  "geo": [
		{
		  "formattedAddress": "176 Anthony F Monica St, Garyville, LA 70051, USA",
		  "latitude": 30.0564658,
		  "longitude": -90.6196186,
		  "extra": {
			"googlePlaceId": "ChIJgfo24PIpIYYR-AsnZKGB7cI",
			"confidence": 1,
			"premise": null,
			"subpremise": null,
			"neighborhood": "Garyville",
			"establishment": null
		  },
		  "administrativeLevels": {
			"level3long": "Parish Governing Authority District 2",
			"level3short": "Parish Governing Authority District 2",
			"level2long": "St. John the Baptist Parish",
			"level2short": "St John the Baptist Parish",
			"level1long": "Louisiana",
			"level1short": "LA"
		  },
		  "streetNumber": "176",
		  "streetName": "Anthony F Monica Street",
		  "city": "Garyville",
		  "country": "United States",
		  "countryCode": "US",
		  "zipcode": "70051",
		  "provider": "google"
		},
		{
		  "formattedAddress": "New Orleans, LA, USA",
		  "latitude": 29.95106579999999,
		  "longitude": -90.0715323,
		  "extra": {
			"googlePlaceId": "ChIJZYIRslSkIIYRtNMiXuhbBts",
			"confidence": 0.5,
			"premise": null,
			"subpremise": null,
			"neighborhood": "New Orleans",
			"establishment": null
		  },
		  "administrativeLevels": {
			"level2long": "Orleans Parish",
			"level2short": "Orleans Parish",
			"level1long": "Louisiana",
			"level1short": "LA"
		  },
		  "city": "New Orleans",
		  "country": "United States",
		  "countryCode": "US",
		  "provider": "google"
		}
	  ]
	},
	{
	  "title": "Ascension of Our Lord",
	  "street": "1900 Greenwood Dr",
	  "startTime": "11am",
	  "endTime": "7pm,",
	  "everyFriday": false,
	  "dates": [
		"2/28",
		"3/6",
		"3/13",
		"3/20",
		"3/27",
		"4/3"
	  ],
	  "telephone": null,
	  "email": null,
	  "food": [
		"Fried Fish Plate"
	  ],
	  "geo": [
		{
		  "formattedAddress": "Greenwood Dr, New Orleans, LA 70124, USA",
		  "latitude": 29.9870572,
		  "longitude": -90.10842509999999,
		  "extra": {
			"googlePlaceId": "ChIJhePbFHevIIYR33lK67xJxtw",
			"confidence": 0.7,
			"premise": null,
			"subpremise": null,
			"neighborhood": "Navarre",
			"establishment": null
		  },
		  "administrativeLevels": {
			"level2long": "Orleans Parish",
			"level2short": "Orleans Parish",
			"level1long": "Louisiana",
			"level1short": "LA"
		  },
		  "streetName": "Greenwood Street",
		  "city": "New Orleans",
		  "country": "United States",
		  "countryCode": "US",
		  "zipcode": "70124",
		  "provider": "google"
		}
	  ]
	},
	{
	  "title": "Our Lady of Perpetual Help",
	  "street": "23, Belle Chasse",
	  "startTime": "5:30pm",
	  "endTime": "8:00pm",
	  "everyFriday": false,
	  "dates": [
		"2/28",
		"3/6",
		"3/13",
		"3/20",
		"3/27",
		"4/3"
	  ],
	  "telephone": null,
	  "email": null,
	  "food": [
		"Catfish, Shrimp",
		"Oysters Plates",
		"Po-Boys",
		"Soup",
		"White Beans"
	  ],
	  "geo": [
		{
		  "formattedAddress": "LA-23, Louisiana, USA",
		  "latitude": 29.9292795,
		  "longitude": -90.0499542,
		  "extra": {
			"googlePlaceId": "ChIJbY8Ftf43nogRkjsvcPFuTqc",
			"confidence": 0.7,
			"premise": null,
			"subpremise": null,
			"neighborhood": "Louisiana",
			"establishment": null
		  },
		  "administrativeLevels": {
			"level1long": "Louisiana",
			"level1short": "LA"
		  },
		  "streetName": "Louisiana 23",
		  "country": "United States",
		  "countryCode": "US",
		  "provider": "google"
		}
	  ]
	},
	{
	  "title": "St. Cletus",
	  "street": "3600 Claire Avenue",
	  "startTime": "5:00pm",
	  "endTime": "8:00pm",
	  "everyFriday": false,
	  "dates": [
		"2/28",
		"3/6",
		"3/13",
		"3/20",
		"3/27",
		"4/3"
	  ],
	  "telephone": null,
	  "email": null,
	  "food": [
		"Catfish",
		"Shrimp",
		"Oyster",
		"Poboys",
		"Plates"
	  ],
	  "geo": [
		{
		  "formattedAddress": "3600 Claire Ave, Gretna, LA 70053, USA",
		  "latitude": 29.8837689,
		  "longitude": -90.04567229999999,
		  "extra": {
			"googlePlaceId": "ChIJ0_CXjdKmIIYRCeyvF6wwNpQ",
			"confidence": 1,
			"premise": null,
			"subpremise": null,
			"neighborhood": "Gretna",
			"establishment": null
		  },
		  "administrativeLevels": {
			"level3long": "Parish Governing Authority District 1",
			"level3short": "Parish Governing Authority District 1",
			"level2long": "Jefferson Parish",
			"level2short": "Jefferson Parish",
			"level1long": "Louisiana",
			"level1short": "LA"
		  },
		  "streetNumber": "3600",
		  "streetName": "Claire Avenue",
		  "city": "Gretna",
		  "country": "United States",
		  "countryCode": "US",
		  "zipcode": "70053",
		  "provider": "google"
		}
	  ]
	},
	{
	  "title": "St. Joan of Arc Knights of Columbus",
	  "street": "529 W. 5th St., LaPlace",
	  "startTime": "4:30pm",
	  "endTime": "7:00pm",
	  "everyFriday": false,
	  "dates": [
		"2/28",
		"3/6",
		"3/13",
		"3/20",
		"3/27",
		"4/3"
	  ],
	  "telephone": null,
	  "email": null,
	  "food": [
		"Shrimp",
		"Fish"
	  ],
	  "geo": [
		{
		  "formattedAddress": "908 Bourbon St, New Orleans, LA 70116, USA",
		  "latitude": 29.960406,
		  "longitude": -90.063885,
		  "extra": {
			"googlePlaceId": "ChIJ4byyRxCmIIYROLZwicJz86E",
			"confidence": 1,
			"premise": null,
			"subpremise": null,
			"neighborhood": "French Quarter",
			"establishment": null
		  },
		  "administrativeLevels": {
			"level2long": "Orleans Parish",
			"level2short": "Orleans Parish",
			"level1long": "Louisiana",
			"level1short": "LA"
		  },
		  "streetNumber": "908",
		  "streetName": "Bourbon Street",
		  "city": "New Orleans",
		  "country": "United States",
		  "countryCode": "US",
		  "zipcode": "70116",
		  "provider": "google"
		}
	  ]
	},
	{
	  "title": "St. John the Baptist Catholic Church",
	  "street": "11345 St. John",
	  "startTime": "4:00pm",
	  "endTime": "7:00pm",
	  "everyFriday": false,
	  "dates": [
		"2/28",
		"3/6",
		"3/13",
		"3/20",
		"3/27",
		"4/3"
	  ],
	  "telephone": null,
	  "email": null,
	  "food": [
		"Fried or Baked Fish",
		"potatoes",
		"hush puppies"
	  ],
	  "geo": [
		{
		  "formattedAddress": "11345 St John Church Rd, Folsom, LA 70437, USA",
		  "latitude": 30.62083479999999,
		  "longitude": -90.22394829999999,
		  "extra": {
			"googlePlaceId": "ChIJ4ZS7pKpuJ4YRhBvTj_3-IGQ",
			"confidence": 1,
			"premise": null,
			"subpremise": null,
			"neighborhood": "Folsom",
			"establishment": null
		  },
		  "administrativeLevels": {
			"level3long": "3",
			"level3short": "3",
			"level2long": "St. Tammany Parish",
			"level2short": "St Tammany Parish",
			"level1long": "Louisiana",
			"level1short": "LA"
		  },
		  "streetNumber": "11345",
		  "streetName": "Saint John Church Road",
		  "city": "Folsom",
		  "country": "United States",
		  "countryCode": "US",
		  "zipcode": "70437",
		  "provider": "google"
		}
	  ]
	},
	{
	  "title": "St. Mark Church",
	  "street": "10773 River Road",
	  "startTime": "5:00pm",
	  "endTime": "7:00pm",
	  "everyFriday": false,
	  "dates": [
		"2/28",
		"3/6",
		"3/13",
		"3/20",
		"3/27",
		"4/3"
	  ],
	  "telephone": null,
	  "email": null,
	  "food": [
		"shrimp",
		"fish",
		"shrimp stew",
		"coleslaw",
		"bread"
	  ],
	  "geo": [
		{
		  "formattedAddress": "10773 River Rd, New Orleans, LA 70131, USA",
		  "latitude": 29.9180627,
		  "longitude": -89.93501649999999,
		  "extra": {
			"googlePlaceId": "EioxMDc3MyBSaXZlciBSZCwgTmV3IE9ybGVhbnMsIExBIDcwMTMxLCBVU0EiGxIZChQKEgld_TMxZRyeiBGEH5aUvynK-hCVVA",
			"confidence": 0.9,
			"premise": null,
			"subpremise": null,
			"neighborhood": "New Aurora",
			"establishment": null
		  },
		  "administrativeLevels": {
			"level2long": "Orleans Parish",
			"level2short": "Orleans Parish",
			"level1long": "Louisiana",
			"level1short": "LA"
		  },
		  "streetNumber": "10773",
		  "streetName": "River Road",
		  "city": "New Orleans",
		  "country": "United States",
		  "countryCode": "US",
		  "zipcode": "70131",
		  "provider": "google"
		}
	  ]
	},
	{
	  "title": "Blessed Francis Xavier Seelos Church",
	  "street": "3037 Dauphine St",
	  "startTime": "5:00pm",
	  "endTime": "7:30pm",
	  "everyFriday": false,
	  "dates": [
		"2/28",
		"3/6",
		"3/13",
		"3/20",
		"3/27",
		"4/3"
	  ],
	  "telephone": null,
	  "email": null,
	  "food": [
		"Cole Slaw",
		"Green Beans",
		"Mac n Cheese",
		"bread",
		"dessert"
	  ],
	  "geo": [
		{
		  "formattedAddress": "3037 Dauphine St, New Orleans, LA 70117, USA",
		  "latitude": 29.9648763,
		  "longitude": -90.04596289999999,
		  "extra": {
			"googlePlaceId": "ChIJdch9mS-mIIYR_Vxes40r53s",
			"confidence": 1,
			"premise": null,
			"subpremise": null,
			"neighborhood": "Bywater",
			"establishment": null
		  },
		  "administrativeLevels": {
			"level2long": "Orleans Parish",
			"level2short": "Orleans Parish",
			"level1long": "Louisiana",
			"level1short": "LA"
		  },
		  "streetNumber": "3037",
		  "streetName": "Dauphine Street",
		  "city": "New Orleans",
		  "country": "United States",
		  "countryCode": "US",
		  "zipcode": "70117",
		  "provider": "google"
		}
	  ]
	},
	{
	  "title": "Divine Mercy Parish",
	  "street": "4337 Sal Lentini",
	  "startTime": "11:00am",
	  "endTime": "7:00pm",
	  "everyFriday": false,
	  "dates": [
		"2/28",
		"3/6",
		"3/13",
		"3/20",
		"3/27",
		"4/3"
	  ],
	  "telephone": null,
	  "email": null,
	  "food": [
		"fried fish fillet",
		"corn",
		"boiled potatoes",
		"roll",
		"coke products"
	  ],
	  "geo": [
		{
		  "formattedAddress": "4337 Sal Lentini Pkwy, Kenner, LA 70065, USA",
		  "latitude": 30.0421452,
		  "longitude": -90.2689733,
		  "extra": {
			"googlePlaceId": "ChIJi4mBnV22IIYRiONTSgrCIfg",
			"confidence": 1,
			"premise": null,
			"subpremise": null,
			"neighborhood": "Kenner",
			"establishment": null
		  },
		  "administrativeLevels": {
			"level3long": "4",
			"level3short": "4",
			"level2long": "Jefferson Parish",
			"level2short": "Jefferson Parish",
			"level1long": "Louisiana",
			"level1short": "LA"
		  },
		  "streetNumber": "4337",
		  "streetName": "Sal Lentini Parkway",
		  "city": "Kenner",
		  "country": "United States",
		  "countryCode": "US",
		  "zipcode": "70065",
		  "provider": "google"
		}
	  ]
	},
	{
	  "title": "Good Shepherd Parish Knights of Columbus",
	  "street": "4219 Constance St",
	  "startTime": "5:45pm",
	  "endTime": "8:30pm",
	  "everyFriday": false,
	  "dates": [
		"2/28",
		"3/6",
		"3/13",
		"3/20",
		"3/27",
		"4/3"
	  ],
	  "telephone": null,
	  "email": null,
	  "food": [
		"Fish",
		"French Fries",
		"Crwafish Pasta",
		"Cole Slaw",
		"Vegetable",
		"Desert"
	  ],
	  "geo": [
		{
		  "formattedAddress": "4219 Constance St, New Orleans, LA 70115, USA",
		  "latitude": 29.9199989,
		  "longitude": -90.0995396,
		  "extra": {
			"googlePlaceId": "ChIJQ3zX7k6kIIYRmOxF5xnNQzk",
			"confidence": 1,
			"premise": null,
			"subpremise": null,
			"neighborhood": "East Riverside",
			"establishment": null
		  },
		  "administrativeLevels": {
			"level2long": "Orleans Parish",
			"level2short": "Orleans Parish",
			"level1long": "Louisiana",
			"level1short": "LA"
		  },
		  "streetNumber": "4219",
		  "streetName": "Constance Street",
		  "city": "New Orleans",
		  "country": "United States",
		  "countryCode": "US",
		  "zipcode": "70115",
		  "provider": "google"
		}
	  ]
	},
	{
	  "title": "Mary, Queen of Peace",
	  "street": null,
	  "startTime": "5:00pm",
	  "endTime": "7:30pm",
	  "everyFriday": false,
	  "dates": [
		"2/28",
		"3/6",
		"3/13",
		"3/20",
		"3/27",
		"4/3"
	  ],
	  "telephone": null,
	  "email": null,
	  "food": [
		"Fried or Baked Fish",
		"Shrimp",
		"Sides",
		"Drink"
	  ],
	  "geo": [
		{
		  "formattedAddress": "New Orleans, LA, USA",
		  "latitude": 29.95106579999999,
		  "longitude": -90.0715323,
		  "extra": {
			"googlePlaceId": "ChIJZYIRslSkIIYRtNMiXuhbBts",
			"confidence": 0.5,
			"premise": null,
			"subpremise": null,
			"neighborhood": "New Orleans",
			"establishment": null
		  },
		  "administrativeLevels": {
			"level2long": "Orleans Parish",
			"level2short": "Orleans Parish",
			"level1long": "Louisiana",
			"level1short": "LA"
		  },
		  "city": "New Orleans",
		  "country": "United States",
		  "countryCode": "US",
		  "provider": "google"
		}
	  ]
	},
	{
	  "title": "Our Lady of the Angels Catholic Church",
	  "street": "6851 River Road, Waggaman",
	  "startTime": "5:00pm",
	  "endTime": "7:00pm",
	  "everyFriday": false,
	  "dates": [
		"2/28",
		"3/6",
		"3/13",
		"3/20",
		"3/27",
		"4/3"
	  ],
	  "telephone": [],
	  "email": null,
	  "food": [
		"Fried Fish Dinner",
		"homemade school roll",
		"Blackened Fish Dinner",
		"Shrimp & Okra Gumbo Dinner",
		"Shrimp & Grits Dinner",
		"Fish Cake Dinner"
	  ],
	  "geo": [
		{
		  "formattedAddress": "New Orleans, LA, USA",
		  "latitude": 29.95106579999999,
		  "longitude": -90.0715323,
		  "extra": {
			"googlePlaceId": "ChIJZYIRslSkIIYRtNMiXuhbBts",
			"confidence": 0.5,
			"premise": null,
			"subpremise": null,
			"neighborhood": "New Orleans",
			"establishment": null
		  },
		  "administrativeLevels": {
			"level2long": "Orleans Parish",
			"level2short": "Orleans Parish",
			"level1long": "Louisiana",
			"level1short": "LA"
		  },
		  "city": "New Orleans",
		  "country": "United States",
		  "countryCode": "US",
		  "provider": "google"
		}
	  ]
	},
	{
	  "title": "St. Ann Knights of Columbus Council",
	  "street": "3601 Transcontinental Dr",
	  "startTime": "6:00pm",
	  "endTime": "7:00pm",
	  "everyFriday": false,
	  "dates": [
		"2/28",
		"3/6",
		"3/13",
		"3/20",
		"3/27",
		"4/3"
	  ],
	  "telephone": [],
	  "email": null,
	  "food": [
		"Fried Fish",
		"Boiled potatoes",
		"Corn",
		"Bread",
		"Cookie",
		"Shrimp Etouffee"
	  ],
	  "geo": [
		{
		  "formattedAddress": "3601 Transcontinental Dr, Metairie, LA 70006, USA",
		  "latitude": 30.0086942,
		  "longitude": -90.195595,
		  "extra": {
			"googlePlaceId": "ChIJV04Lp_qwIIYR83PeaP54QS8",
			"confidence": 1,
			"premise": null,
			"subpremise": null,
			"neighborhood": "Metairie",
			"establishment": null
		  },
		  "administrativeLevels": {
			"level3long": "5",
			"level3short": "5",
			"level2long": "Jefferson Parish",
			"level2short": "Jefferson Parish",
			"level1long": "Louisiana",
			"level1short": "LA"
		  },
		  "streetNumber": "3601",
		  "streetName": "Transcontinental Drive",
		  "city": "Metairie",
		  "country": "United States",
		  "countryCode": "US",
		  "zipcode": "70006",
		  "provider": "google"
		}
	  ]
	},
	{
	  "title": "St. Anselm",
	  "street": "306 St. Mary",
	  "startTime": "5:00pm",
	  "endTime": "7:00pm",
	  "everyFriday": false,
	  "dates": [
		"2/28",
		"3/6",
		"3/13",
		"3/20",
		"3/27",
		"4/3"
	  ],
	  "telephone": null,
	  "email": null,
	  "food": [
		"Catfish",
		"Shrimp",
		"Soft-Shell Crabs",
		"Many Sides to Choose"
	  ],
	  "geo": [
		{
		  "formattedAddress": "306 St Mary St, New Orleans, LA 70130, USA",
		  "latitude": 29.9254109,
		  "longitude": -90.06832109999999,
		  "extra": {
			"googlePlaceId": "EiozMDYgU3QgTWFyeSBTdCwgTmV3IE9ybGVhbnMsIExBIDcwMTMwLCBVU0EiGxIZChQKEgkl8m4ah6YghhF6ipUb2hOffBCyAg",
			"confidence": 0.9,
			"premise": null,
			"subpremise": null,
			"neighborhood": "St. Thomas Development Neighborhood",
			"establishment": null
		  },
		  "administrativeLevels": {
			"level2long": "Orleans Parish",
			"level2short": "Orleans Parish",
			"level1long": "Louisiana",
			"level1short": "LA"
		  },
		  "streetNumber": "306",
		  "streetName": "Saint Mary Street",
		  "city": "New Orleans",
		  "country": "United States",
		  "countryCode": "US",
		  "zipcode": "70130",
		  "provider": "google"
		}
	  ]
	},
	{
	  "title": "St Anthony of Padua",
	  "street": "234 Angus Drive",
	  "startTime": "5:00pm",
	  "endTime": "7:00pm",
	  "everyFriday": false,
	  "dates": [
		"2/28",
		"3/6",
		"3/13",
		"3/20",
		"3/27",
		"4/3"
	  ],
	  "telephone": null,
	  "email": null,
	  "food": [
		"fries",
		"vegetables",
		"gumbo",
		"potato salad",
		"bread"
	  ],
	  "geo": [
		{
		  "formattedAddress": "234 Angus Dr, Luling, LA 70070, USA",
		  "latitude": 29.9209607,
		  "longitude": -90.36841539999999,
		  "extra": {
			"googlePlaceId": "ChIJuWm4gYbGIIYR80No2WAvSBA",
			"confidence": 1,
			"premise": null,
			"subpremise": null,
			"neighborhood": "Luling",
			"establishment": null
		  },
		  "administrativeLevels": {
			"level3long": "2",
			"level3short": "2",
			"level2long": "St. Charles Parish",
			"level2short": "St Charles Parish",
			"level1long": "Louisiana",
			"level1short": "LA"
		  },
		  "streetNumber": "234",
		  "streetName": "Angus Drive",
		  "city": "Luling",
		  "country": "United States",
		  "countryCode": "US",
		  "zipcode": "70070",
		  "provider": "google"
		}
	  ]
	},
	{
	  "title": "St. David",
	  "street": "5617 St. Claude",
	  "startTime": "11:00am",
	  "endTime": "5:30pm",
	  "everyFriday": false,
	  "dates": [
		"2/28",
		"3/6",
		"3/13",
		"3/20",
		"3/27",
		"4/3"
	  ],
	  "telephone": null,
	  "email": null,
	  "food": [
	  ],
	  "geo": [
		{
		  "formattedAddress": "5617 St Claude Ave, New Orleans, LA 70117, USA",
		  "latitude": 29.9615526,
		  "longitude": -90.0148213,
		  "extra": {
			"googlePlaceId": "ChIJv7bcp-inIIYRxIMnI8roPyQ",
			"confidence": 1,
			"premise": null,
			"subpremise": null,
			"neighborhood": "Lower Ninth Ward",
			"establishment": null
		  },
		  "administrativeLevels": {
			"level2long": "Orleans Parish",
			"level2short": "Orleans Parish",
			"level1long": "Louisiana",
			"level1short": "LA"
		  },
		  "streetNumber": "5617",
		  "streetName": "Saint Claude Avenue",
		  "city": "New Orleans",
		  "country": "United States",
		  "countryCode": "US",
		  "zipcode": "70117",
		  "provider": "google"
		}
	  ]
	},
	{
	  "title": "St. Gabriel the Archangel",
	  "street": "4700 Pineda St",
	  "startTime": "5:00pm",
	  "endTime": "7:30pm",
	  "everyFriday": false,
	  "dates": [
		"2/28",
		"3/6",
		"3/13",
		"3/20",
		"3/27",
		"4/3"
	  ],
	  "telephone": null,
	  "email": null,
	  "food": [
		"Fish (Baked or Fried)",
		"Mac & Cheese",
		"Vegetables",
		"Salad (Tossed or Potato)",
		"Dessert"
	  ],
	  "geo": [
		{
		  "formattedAddress": "4700 Pineda St, New Orleans, LA 70126, USA",
		  "latitude": 30.0126152,
		  "longitude": -90.0373931,
		  "extra": {
			"googlePlaceId": "ChIJ_wrYnfioIIYRab65k6vI-64",
			"confidence": 1,
			"premise": null,
			"subpremise": null,
			"neighborhood": "Gentilly",
			"establishment": null
		  },
		  "administrativeLevels": {
			"level2long": "Orleans Parish",
			"level2short": "Orleans Parish",
			"level1long": "Louisiana",
			"level1short": "LA"
		  },
		  "streetNumber": "4700",
		  "streetName": "Pineda Street",
		  "city": "New Orleans",
		  "country": "United States",
		  "countryCode": "US",
		  "zipcode": "70126",
		  "provider": "google"
		}
	  ]
	},
	{
	  "title": "St. Joseph The Worker Knights of Peter Claver",
	  "street": "453 Pine St",
	  "startTime": "11:00am",
	  "endTime": "5:00pm",
	  "everyFriday": false,
	  "dates": [
		"2/28",
		"3/6",
		"3/13",
		"3/20",
		"3/27",
		"4/3"
	  ],
	  "telephone": null,
	  "email": null,
	  "food": [
		"Fried / Baked Fish",
		"Baked Spaghetti",
		"Peas",
		"Potato Salad",
		"Bread",
		"Shrimp Pasta",
		"Crawfish Stew",
		"Shrimp Stew",
		"homemade Baked Goods"
	  ],
	  "geo": [
		{
		  "formattedAddress": "453 Pine St, New Orleans, LA 70118, USA",
		  "latitude": 29.935526,
		  "longitude": -90.1290449,
		  "extra": {
			"googlePlaceId": "Eic0NTMgUGluZSBTdCwgTmV3IE9ybGVhbnMsIExBIDcwMTE4LCBVU0EiGxIZChQKEgmNKZzwGKUghhEGOSkXT9QtThDFAw",
			"confidence": 0.9,
			"premise": null,
			"subpremise": null,
			"neighborhood": "Audubon",
			"establishment": null
		  },
		  "administrativeLevels": {
			"level2long": "Orleans Parish",
			"level2short": "Orleans Parish",
			"level1long": "Louisiana",
			"level1short": "LA"
		  },
		  "streetNumber": "453",
		  "streetName": "Pine Street",
		  "city": "New Orleans",
		  "country": "United States",
		  "countryCode": "US",
		  "zipcode": "70118",
		  "provider": "google"
		}
	  ]
	},
	{
	  "title": "Holy Family Knights of Columbus",
	  "street": "155 Holy Family",
	  "startTime": "5:00pm",
	  "endTime": "8:00pm",
	  "everyFriday": false,
	  "dates": [
		"3/6",
		"3/13"
	  ],
	  "telephone": null,
	  "email": null,
	  "food": [
		"salad",
		"mac and cheese",
		"fish tacos"
	  ],
	  "geo": [
		{
		  "formattedAddress": "155 Holy Family Ln, Luling, LA 70070, USA",
		  "latitude": 29.9077101,
		  "longitude": -90.3500675,
		  "extra": {
			"googlePlaceId": "ChIJ3dg-DenGIIYRolh191assiI",
			"confidence": 1,
			"premise": null,
			"subpremise": null,
			"neighborhood": "Luling",
			"establishment": null
		  },
		  "administrativeLevels": {
			"level3long": "7",
			"level3short": "7",
			"level2long": "St. Charles Parish",
			"level2short": "St Charles Parish",
			"level1long": "Louisiana",
			"level1short": "LA"
		  },
		  "streetNumber": "155",
		  "streetName": "Holy Family Lane",
		  "city": "Luling",
		  "country": "United States",
		  "countryCode": "US",
		  "zipcode": "70070",
		  "provider": "google"
		}
	  ]
	},
	{
	  "title": "OUR LADY OF LOURDES MENS CLUB",
	  "street": "345 Westchester Place",
	  "startTime": "5:00pm",
	  "endTime": "8:00pm",
	  "everyFriday": false,
	  "dates": [
		"3/6",
		"3/13",
		"3/20",
		"3/27"
	  ],
	  "telephone": null,
	  "email": null,
	  "food": [
		"shrimp",
		"salad",
		"potato",
		"crab",
		"potatoes",
		"pizza",
		"dessert"
	  ],
	  "geo": [
		{
		  "formattedAddress": "345 Westchester Pl, New Orleans, LA 70131, USA",
		  "latitude": 29.9246915,
		  "longitude": -89.99119809999999,
		  "extra": {
			"googlePlaceId": "Ei4zNDUgV2VzdGNoZXN0ZXIgUGwsIE5ldyBPcmxlYW5zLCBMQSA3MDEzMSwgVVNBIhsSGQoUChIJ-RxgKYMdnogRj3zaz7WCZgsQ2QI",
			"confidence": 0.9,
			"premise": null,
			"subpremise": null,
			"neighborhood": "Old Aurora",
			"establishment": null
		  },
		  "administrativeLevels": {
			"level2long": "Orleans Parish",
			"level2short": "Orleans Parish",
			"level1long": "Louisiana",
			"level1short": "LA"
		  },
		  "streetNumber": "345",
		  "streetName": "Westchester Place",
		  "city": "New Orleans",
		  "country": "United States",
		  "countryCode": "US",
		  "zipcode": "70131",
		  "provider": "google"
		}
	  ]
	},
	{
	  "title": "St. Agnes Church",
	  "street": "3310 Jefferson Highway",
	  "startTime": "5:00pm",
	  "endTime": "8:00pm",
	  "everyFriday": false,
	  "dates": [
		"3/6",
		"3/20",
		"4/3"
	  ],
	  "telephone": null,
	  "email": null,
	  "food": [],
	  "geo": [
		{
		  "formattedAddress": "3310 Jefferson Hwy, Jefferson, LA 70121, USA",
		  "latitude": 29.9627333,
		  "longitude": -90.1592093,
		  "extra": {
			"googlePlaceId": "ChIJP9fgU6W6IIYRVpQepfET388",
			"confidence": 1,
			"premise": null,
			"subpremise": null,
			"neighborhood": "Jefferson",
			"establishment": null
		  },
		  "administrativeLevels": {
			"level3long": "Parish Governing Authority District 2",
			"level3short": "Parish Governing Authority District 2",
			"level2long": "Jefferson Parish",
			"level2short": "Jefferson Parish",
			"level1long": "Louisiana",
			"level1short": "LA"
		  },
		  "streetNumber": "3310",
		  "streetName": "Jefferson Highway",
		  "city": "Jefferson",
		  "country": "United States",
		  "countryCode": "US",
		  "zipcode": "70121",
		  "provider": "google"
		}
	  ]
	},
	{
	  "title": "St. Angela Merici",
	  "street": "901 Bevery Garden",
	  "startTime": "5:00pm",
	  "endTime": "8:00pm",
	  "everyFriday": false,
	  "dates": [
		"3/6",
		"3/13",
		"4/3"
	  ],
	  "telephone": null,
	  "email": null,
	  "food": [
		"Fried Fish",
		"Shrimp",
		"Cole Slaw",
		"French Fries",
		"Iced Tea"
	  ],
	  "geo": [
		{
		  "formattedAddress": "901 Beverly Garden Dr, Metairie, LA 70002, USA",
		  "latitude": 30.0042804,
		  "longitude": -90.146607,
		  "extra": {
			"googlePlaceId": "ChIJSeyvItmvIIYRkI_WXUT_79M",
			"confidence": 1,
			"premise": null,
			"subpremise": null,
			"neighborhood": "Metairie",
			"establishment": null
		  },
		  "administrativeLevels": {
			"level3long": "5",
			"level3short": "5",
			"level2long": "Jefferson Parish",
			"level2short": "Jefferson Parish",
			"level1long": "Louisiana",
			"level1short": "LA"
		  },
		  "streetNumber": "901",
		  "streetName": "Beverly Garden Drive",
		  "city": "Metairie",
		  "country": "United States",
		  "countryCode": "US",
		  "zipcode": "70002",
		  "provider": "google"
		}
	  ]
	},
	{
	  "title": "St. Ann Men's Club",
	  "street": "3601 Transcontinental Dr",
	  "startTime": "6:00pm",
	  "endTime": "8:00pm",
	  "everyFriday": false,
	  "dates": [
		"3/27"
	  ],
	  "telephone": null,
	  "email": null,
	  "food": [
		"Shrimp",
		"Fish",
		"Seafood Gumbo",
		"Pizza",
		"smashed potatoes",
		"green beans",
		"potatoes"
	  ],
	  "geo": [
		{
		  "formattedAddress": "3601 Transcontinental Dr, Metairie, LA 70006, USA",
		  "latitude": 30.0086942,
		  "longitude": -90.195595,
		  "extra": {
			"googlePlaceId": "ChIJV04Lp_qwIIYR83PeaP54QS8",
			"confidence": 1,
			"premise": null,
			"subpremise": null,
			"neighborhood": "Metairie",
			"establishment": null
		  },
		  "administrativeLevels": {
			"level3long": "5",
			"level3short": "5",
			"level2long": "Jefferson Parish",
			"level2short": "Jefferson Parish",
			"level1long": "Louisiana",
			"level1short": "LA"
		  },
		  "streetNumber": "3601",
		  "streetName": "Transcontinental Drive",
		  "city": "Metairie",
		  "country": "United States",
		  "countryCode": "US",
		  "zipcode": "70006",
		  "provider": "google"
		}
	  ]
	},
	{
	  "title": "St. Benilde Men's Club",
	  "street": "1901 Division St",
	  "startTime": "5:45pm",
	  "endTime": "8:00pm",
	  "everyFriday": false,
	  "dates": [
		"3/6",
		"4/3"
	  ],
	  "telephone": null,
	  "email": null,
	  "food": [
		"Fish Plate",
		"Shrimp",
		"Soft Shell Crab Plate",
		"Grilled Redfish",
		"Seafood Muffuletta (Pre-Sale Only)",
		"Crab & Corn Bisque",
		"Seafood Gumbo",
		"Fish Tac Thai Shrimp Taco",
		"Slice of Cheese Pizza",
		"Drinks/Beer",
		"Bread Pudding with Blueberry Sauce"
	  ],
	  "geo": [
		{
		  "formattedAddress": "1901 Division Street, Metairie, LA 70001, USA",
		  "latitude": 29.9897205,
		  "longitude": -90.1644309,
		  "extra": {
			"googlePlaceId": "ChIJq2N-UPOwIIYRuWNymIXEgwo",
			"confidence": 1,
			"premise": null,
			"subpremise": null,
			"neighborhood": "Metairie",
			"establishment": null
		  },
		  "administrativeLevels": {
			"level3long": "5",
			"level3short": "5",
			"level2long": "Jefferson Parish",
			"level2short": "Jefferson Parish",
			"level1long": "Louisiana",
			"level1short": "LA"
		  },
		  "streetNumber": "1901",
		  "streetName": "Division Street",
		  "city": "Metairie",
		  "country": "United States",
		  "countryCode": "US",
		  "zipcode": "70001",
		  "provider": "google"
		}
	  ]
	},
	{
	  "title": "St. Jane de Chantal",
	  "street": "72054 Maple Street",
	  "startTime": "5:00pm",
	  "endTime": "8:00pm",
	  "everyFriday": true,
	  "dates": null,
	  "telephone": null,
	  "email": null,
	  "food": [
		"fried fish",
		"shrimp",
		"boiled potatoes",
		"french fries",
		"cole slaw",
		"Desserts"
	  ],
	  "geo": [
		{
		  "formattedAddress": "Maple St, New Orleans, LA 70118, USA",
		  "latitude": 29.9424918,
		  "longitude": -90.1302834,
		  "extra": {
			"googlePlaceId": "ChIJ85LyMxalIIYRGMzzEN0lMwA",
			"confidence": 0.7,
			"premise": null,
			"subpremise": null,
			"neighborhood": "Uptown/Carrollton",
			"establishment": null
		  },
		  "administrativeLevels": {
			"level2long": "Orleans Parish",
			"level2short": "Orleans Parish",
			"level1long": "Louisiana",
			"level1short": "LA"
		  },
		  "streetName": "Maple Street",
		  "city": "New Orleans",
		  "country": "United States",
		  "countryCode": "US",
		  "zipcode": "70118",
		  "provider": "google"
		}
	  ]
	},
	{
	  "title": "St. Louis King of France",
	  "street": "1609 Carrollton Ave",
	  "startTime": "4:30pm",
	  "endTime": "8:00pm",
	  "everyFriday": false,
	  "dates": [
		"3/6",
		"3/13"
	  ],
	  "telephone": null,
	  "email": null,
	  "food": [
		"fried fish",
		"shrimp",
		"boiled potatoes",
		"french fries",
		"cole slaw",
		"corn on the cob"
	  ],
	  "geo": [
		{
		  "formattedAddress": "1609 S Carrollton Ave, New Orleans, LA 70118, USA",
		  "latitude": 29.9500842,
		  "longitude": -90.12596959999999,
		  "extra": {
			"googlePlaceId": "EjExNjA5IFMgQ2Fycm9sbHRvbiBBdmUsIE5ldyBPcmxlYW5zLCBMQSA3MDExOCwgVVNBIhsSGQoUChIJ5TZ7qRSlIIYRA8klPLeWzVoQyQw",
			"confidence": 0.9,
			"premise": null,
			"subpremise": null,
			"neighborhood": "East Carrollton",
			"establishment": null
		  },
		  "administrativeLevels": {
			"level2long": "Orleans Parish",
			"level2short": "Orleans Parish",
			"level1long": "Louisiana",
			"level1short": "LA"
		  },
		  "streetNumber": "1609",
		  "streetName": "South Carrollton Avenue",
		  "city": "New Orleans",
		  "country": "United States",
		  "countryCode": "US",
		  "zipcode": "70118",
		  "provider": "google"
		}
	  ]
	},
	{
	  "title": "St. Mary Magdalen Men's Club",
	  "street": null,
	  "startTime": "5:30pm",
	  "endTime": "8:00pm",
	  "everyFriday": false,
	  "dates": [
		"3/6",
		"3/20"
	  ],
	  "telephone": [
		"504-450-7621"
	  ],
	  "email": null,
	  "food": [
		"Fish",
		"Shrimp",
		"Pizza",
		"Crawfish Pie",
		"Gumbo",
		"Hot Potatoes",
		"Coleslaw"
	  ],
	  "geo": [
		{
		  "formattedAddress": "New Orleans, LA, USA",
		  "latitude": 29.95106579999999,
		  "longitude": -90.0715323,
		  "extra": {
			"googlePlaceId": "ChIJZYIRslSkIIYRtNMiXuhbBts",
			"confidence": 0.5,
			"premise": null,
			"subpremise": null,
			"neighborhood": "New Orleans",
			"establishment": null
		  },
		  "administrativeLevels": {
			"level2long": "Orleans Parish",
			"level2short": "Orleans Parish",
			"level1long": "Louisiana",
			"level1short": "LA"
		  },
		  "city": "New Orleans",
		  "country": "United States",
		  "countryCode": "US",
		  "provider": "google"
		}
	  ]
	},
	{
	  "title": "St. Francis of Assisi",
	  "street": "631 State St",
	  "startTime": "5:30pm",
	  "endTime": "7:30pm",
	  "everyFriday": false,
	  "dates": [
		"3/6",
		"3/20"
	  ],
	  "telephone": [
		"504-891-4479"
	  ],
	  "email": null,
	  "food": [
		"salad",
		"fish",
		"baked macaroni",
		"vegetable salad",
		"dessert"
	  ],
	  "geo": [
		{
		  "formattedAddress": "631 State St, New Orleans, LA 70118, USA",
		  "latitude": 29.9208614,
		  "longitude": -90.1217291,
		  "extra": {
			"googlePlaceId": "ChIJafOtsOSkIIYRpuwnPYX-uHM",
			"confidence": 1,
			"premise": null,
			"subpremise": null,
			"neighborhood": "West Riverside",
			"establishment": null
		  },
		  "administrativeLevels": {
			"level2long": "Orleans Parish",
			"level2short": "Orleans Parish",
			"level1long": "Louisiana",
			"level1short": "LA"
		  },
		  "streetNumber": "631",
		  "streetName": "State Street",
		  "city": "New Orleans",
		  "country": "United States",
		  "countryCode": "US",
		  "zipcode": "70118",
		  "provider": "google"
		}
	  ]
	},
	{
	  "title": "St. Francis Xavier",
	  "street": "444 Metairie Rd",
	  "startTime": "5:30pm",
	  "endTime": "8:30pm",
	  "everyFriday": false,
	  "dates": [
		"3/6",
		"3/20"
	  ],
	  "telephone": null,
	  "email": null,
	  "food": [
		"bread",
		"plate",
		"cheese",
		"salad",
		"potatoes",
		"seafood gumbo",
		"crawfish",
		"pizza"
	  ],
	  "geo": [
		{
		  "formattedAddress": "444 Metairie Rd, Metairie, LA 70005, USA",
		  "latitude": 29.98323539999999,
		  "longitude": -90.12886999999999,
		  "extra": {
			"googlePlaceId": "ChIJlU-fBY2vIIYRQLTMoz5h1yg",
			"confidence": 1,
			"premise": null,
			"subpremise": null,
			"neighborhood": "Metairie",
			"establishment": null
		  },
		  "administrativeLevels": {
			"level3long": "5",
			"level3short": "5",
			"level2long": "Jefferson Parish",
			"level2short": "Jefferson Parish",
			"level1long": "Louisiana",
			"level1short": "LA"
		  },
		  "streetNumber": "444",
		  "streetName": "Metairie Road",
		  "city": "Metairie",
		  "country": "United States",
		  "countryCode": "US",
		  "zipcode": "70005",
		  "provider": "google"
		}
	  ]
	},
	{
	  "title": "St. Philip Neri",
	  "street": "6500 Kawanee Ave",
	  "startTime": "6:00pm",
	  "endTime": "8:30pm",
	  "everyFriday": false,
	  "dates": [
		"3/6"
	  ],
	  "telephone": null,
	  "email": null,
	  "food": [
		"Fried or Broiled Fish",
		"Cajun boiled Potatoes",
		"Corn",
		"Salad",
		"Bread"
	  ],
	  "geo": [
		{
		  "formattedAddress": "6500 Kawanee Ave, Metairie, LA 70003, USA",
		  "latitude": 30.0118352,
		  "longitude": -90.2159781,
		  "extra": {
			"googlePlaceId": "ChIJgcBxhcC7IIYRDezhB4uPoWE",
			"confidence": 1,
			"premise": null,
			"subpremise": null,
			"neighborhood": "Metairie",
			"establishment": null
		  },
		  "administrativeLevels": {
			"level3long": "4",
			"level3short": "4",
			"level2long": "Jefferson Parish",
			"level2short": "Jefferson Parish",
			"level1long": "Louisiana",
			"level1short": "LA"
		  },
		  "streetNumber": "6500",
		  "streetName": "Kawanee Avenue",
		  "city": "Metairie",
		  "country": "United States",
		  "countryCode": "US",
		  "zipcode": "70003",
		  "provider": "google"
		}
	  ]
	},
	{
	  "title": "St. Pius X Boy Scouts",
	  "street": "6600 Spanish Fort",
	  "startTime": "5:30pm",
	  "endTime": "8:30pm",
	  "everyFriday": false,
	  "dates": [
		"3/6",
		"4/3"
	  ],
	  "telephone": null,
	  "email": null,
	  "food": [
		"bread",
		"salad",
		"macaroni and cheese",
		"pizza",
		"desserts"
	  ],
	  "geo": [
		{
		  "formattedAddress": "6600 Spanish Fort Blvd, New Orleans, LA 70124, USA",
		  "latitude": 30.0241878,
		  "longitude": -90.0907428,
		  "extra": {
			"googlePlaceId": "ChIJqbiy9t6uIIYRqkt7YVwoWSc",
			"confidence": 1,
			"premise": null,
			"subpremise": null,
			"neighborhood": "Lake Shore - Lake Vista",
			"establishment": null
		  },
		  "administrativeLevels": {
			"level2long": "Orleans Parish",
			"level2short": "Orleans Parish",
			"level1long": "Louisiana",
			"level1short": "LA"
		  },
		  "streetNumber": "6600",
		  "streetName": "Spanish Fort Boulevard",
		  "city": "New Orleans",
		  "country": "United States",
		  "countryCode": "US",
		  "zipcode": "70124",
		  "provider": "google"
		}
	  ]
	},
	{
	  "title": "St. Rita Catholic School",
	  "street": "65 Fontainebleau, new",
	  "startTime": "4:00pm",
	  "endTime": "6:30pm",
	  "everyFriday": false,
	  "dates": [
		"3/13",
		"3/27",
		"4/3"
	  ],
	  "telephone": [
		"5048661777"
	  ],
	  "email": null,
	  "food": [
		"FRIED FISH",
		"MACARONI AND CHEESE",
		"PEAS",
		"CAKE",
		"BREAD ROLL"
	  ],
	  "geo": [
		{
		  "formattedAddress": "65 Fontainebleau Dr, New Orleans, LA 70125, USA",
		  "latitude": 29.9546656,
		  "longitude": -90.1148226,
		  "extra": {
			"googlePlaceId": "ChIJe91XSXSlIIYRzgvDr4A2zww",
			"confidence": 1,
			"premise": null,
			"subpremise": null,
			"neighborhood": "Marlyville - Fontainebleau",
			"establishment": null
		  },
		  "administrativeLevels": {
			"level2long": "Orleans Parish",
			"level2short": "Orleans Parish",
			"level1long": "Louisiana",
			"level1short": "LA"
		  },
		  "streetNumber": "65",
		  "streetName": "Fontainebleau Drive",
		  "city": "New Orleans",
		  "country": "United States",
		  "countryCode": "US",
		  "zipcode": "70125",
		  "provider": "google"
		}
	  ]
	},
	{
	  "title": "Brother Martin High School",
	  "street": "4401 Elysian Fields",
	  "startTime": "4:30pm",
	  "endTime": "7:30pm",
	  "everyFriday": false,
	  "dates": [
		"March 27, 2020 from 4:30 p."
	  ],
	  "telephone": null,
	  "email": null,
	  "food": [
		"fries",
		"shrimp",
		"fish",
		"coleslaw",
		"hushpuppies",
		"shrimp poboys",
		"boiled crawfish",
		"corn",
		"crab bisque",
		"pizza"
	  ],
	  "geo": [
		{
		  "formattedAddress": "4401 Elysian Fields Ave, New Orleans, LA 70122, USA",
		  "latitude": 30.0037569,
		  "longitude": -90.05883949999999,
		  "extra": {
			"googlePlaceId": "ChIJa15NzMOoIIYRCL_KJVYU318",
			"confidence": 1,
			"premise": null,
			"subpremise": null,
			"neighborhood": "Gentilly",
			"establishment": null
		  },
		  "administrativeLevels": {
			"level2long": "Orleans Parish",
			"level2short": "Orleans Parish",
			"level1long": "Louisiana",
			"level1short": "LA"
		  },
		  "streetNumber": "4401",
		  "streetName": "Elysian Fields Avenue",
		  "city": "New Orleans",
		  "country": "United States",
		  "countryCode": "US",
		  "zipcode": "70122",
		  "provider": "google"
		}
	  ]
	}
  ]
}
